[
  {
    "name": "농축산마트 광안쌍용점",
    "address": "부산광역시 수영구 광안로 37",
    "phone": "051-756-9991",
    "hours": "",
    "category": "슈퍼마켓",
    "rating": "4.2",
    "reviewCount": "143",
    "lat": 35.1556694,
    "lng": 129.116381,
    "description": "",
    "source": "naver-blog",
    "sellerCategory": ""
  },
  {
    "name": "명문제과",
    "address": "전북특별자치도 남원시 하정동 용성로 56",
    "phone": "063-632-0933",
    "hours": "",
    "category": "제과점",
    "rating": "4.1",
    "reviewCount": "1300",
    "lat": 35.4090003,
    "lng": 127.3824982,
    "description": "",
    "source": "naver-blog",
    "sellerCategory": ""
  },
  {
    "name": "롯데마트 수원점",
    "address": "경기도 수원시 권선구 세화로 134",
    "phone": "031-8067-2500",
    "hours": "",
    "category": "대형 슈퍼마켓",
    "rating": "4.2",
    "reviewCount": "1616",
    "lat": 37.2641736,
    "lng": 126.9971088,
    "description": "",
    "source": "naver-blog",
    "sellerCategory": ""
  },
  {
    "name": "마트킹 동수원점",
    "address": "경기도 수원시 권선구 동수원로 254",
    "phone": "",
    "hours": "",
    "category": "쇼핑몰",
    "rating": "4.5",
    "reviewCount": "2",
    "lat": 37.2521554,
    "lng": 127.0354156,
    "description": "",
    "source": "naver-blog",
    "sellerCategory": ""
  },
  {
    "name": "롯데슈퍼 언남점",
    "address": "경기도 용인시 기흥구 구성동 구성로 118",
    "phone": "",
    "hours": "",
    "category": "슈퍼마켓",
    "rating": "4.0",
    "reviewCount": "135",
    "lat": 37.29263,
    "lng": 127.121495,
    "description": "",
    "source": "naver-blog",
    "sellerCategory": ""
  },
  {
    "name": "GS더프레시 부산센텀점",
    "address": "부산광역시 해운대구 해운대로76번길 65 1 층",
    "phone": "",
    "hours": "",
    "category": "슈퍼마켓",
    "rating": "",
    "reviewCount": "",
    "lat": 35.1902688,
    "lng": 129.1170419,
    "description": "",
    "source": "naver-blog",
    "sellerCategory": ""
  },
  {
    "name": "드롭 베이커리",
    "address": "경기도 여주시 시 세종로45번길 8",
    "phone": "010-6690-0045",
    "hours": "",
    "category": "제과점",
    "rating": "5.0",
    "reviewCount": "2",
    "lat": 37.2934726,
    "lng": 127.636913,
    "description": "",
    "source": "naver-blog",
    "sellerCategory": ""
  }
]