[
  {
    "name": "미구제과",
    "searchQuery": "미구제과 대구 달서구",
    "address": "대구광역시 달서구 용산동 954-14 ",
    "phone": "전화: 050-71366-6231 ",
    "hours": "영업시간",
    "rating": "",
    "lat": 35.8542606,
    "lng": 128.5315267
  },
  {
    "name": "모리베이커리 MORI bakery",
    "searchQuery": "미구제과 대구 수성구 범어",
    "address": "대구광역시 수성구 상록로11길 93 ",
    "phone": "전화: 053-636-4674 ",
    "hours": "영업시간",
    "rating": "4.7",
    "lat": 35.8620389,
    "lng": 128.623224
  },
  {
    "name": "미구제과",
    "searchQuery": "미구제과 대구 봉산",
    "address": "대구광역시 달서구 용산동 954-14 ",
    "phone": "전화: 050-71366-6231 ",
    "hours": "영업시간",
    "rating": "5.0",
    "lat": 35.8542606,
    "lng": 128.5315267
  },
  {
    "name": "미구제과",
    "searchQuery": "미구제과 대구 중구 중앙대로",
    "address": "대구광역시 달서구 용산동 954-14 ",
    "phone": "전화: 050-71366-6231 ",
    "hours": "영업시간",
    "rating": "",
    "lat": 35.8542606,
    "lng": 128.5315267
  },
  {
    "name": "미구제과",
    "searchQuery": "미구제과 대구 동구",
    "address": "대구광역시 달서구 용산동 954-14 ",
    "phone": "전화: 050-71366-6231 ",
    "hours": "영업시간",
    "rating": "",
    "lat": 35.8542606,
    "lng": 128.5315267
  },
  {
    "name": "그런느낌",
    "searchQuery": "몰레디저트카페 광주 동구",
    "address": "광주광역시 광산구 수완로9번길 22-1 ",
    "phone": "전화: 062-400-2580 ",
    "hours": "영업시간",
    "rating": "4.2",
    "lat": 35.1848291,
    "lng": 126.8268853
  },
  {
    "name": "그런느낌",
    "searchQuery": "몰레디저트카페 광주 광산구 수완",
    "address": "광주광역시 광산구 수완로9번길 22-1 ",
    "phone": "전화: 062-400-2580 ",
    "hours": "영업시간",
    "rating": "4.2",
    "lat": 35.1848291,
    "lng": 126.8268853
  },
  {
    "name": "디저트39 광주상무지구점",
    "searchQuery": "몰레디저트카페 광주 서구",
    "address": "광주광역시 서구 치평로 86 ",
    "phone": "전화: 050-71496-7808 ",
    "hours": "영업시간",
    "rating": "4.5",
    "lat": 35.1548937,
    "lng": 126.8478146
  },
  {
    "name": "디저트39 전대점",
    "searchQuery": "몰레디저트카페 광주 북구",
    "address": "광주광역시 북구 중흥동 호동로 12-8 ",
    "phone": "전화: 062-268-2200 ",
    "hours": "영업시간",
    "rating": "4.3",
    "lat": 35.1744537,
    "lng": 126.9142962
  },
  {
    "name": "크림집",
    "searchQuery": "몰레디저트카페 광주 남구",
    "address": "광주광역시 광산구 하완길 26-12 ",
    "phone": "전화: 062-955-5151 ",
    "hours": "영업시간",
    "rating": "5.0",
    "lat": 35.2017044,
    "lng": 126.8251912
  },
  {
    "name": "브리나케오슈",
    "searchQuery": "브리나케오슈 제주 애월",
    "address": "제주특별자치도 제주시 특별자치도, 고내3길 21-2 ",
    "phone": "전화: 050-71441-9086 ",
    "hours": "영업시간",
    "rating": "5.0",
    "lat": 33.4645946,
    "lng": 126.3362474
  },
  {
    "name": "모어커피랩 more coffee lab",
    "searchQuery": "모어커피랩 전주",
    "address": "전북특별자치도 전주시 덕진구 우아동3가 견훤로 726-7 424 우측 ",
    "phone": "전화: 050-71317-9499 ",
    "hours": "영업시간",
    "rating": "5.0",
    "lat": 35.8488398,
    "lng": 127.1523132
  },
  {
    "name": "겐츠베이커리 롯데백화점부산본점 (서면점)",
    "searchQuery": "겐츠베이커리 부산 부산진구",
    "address": "부산광역시 부산진구 가야대로 772 롯데 백화점 부산 본점 B1 ",
    "phone": "전화: 051-810-4099 ",
    "hours": "영업시간",
    "rating": "3.8",
    "lat": 35.1569212,
    "lng": 129.0563172
  }
]