[
  {
    "name": "달리당",
    "searchQuery": "달리당 수원본점 상하이버터떡",
    "address": "경기도 수원시 팔달구 창룡대로80번길 15 1층 ",
    "phone": "050-71427-7729",
    "hours": "이번 주 영업시간 표시",
    "rating": "4.6",
    "lat": 37.2856991,
    "lng": 127.0236647
  },
  {
    "name": "연남허니밀크 Yeonnam Honey Milk",
    "searchQuery": "연남허니밀크 상하이버터떡",
    "address": "서울특별시 마포구 양화로23길 10-14 1층 ",
    "phone": "02-3144-7104",
    "hours": "",
    "rating": "5.0",
    "lat": 37.5593908,
    "lng": 126.9257928
  },
  {
    "name": "수아카롱 본점",
    "searchQuery": "수아카롱 본점 수원 상하이버터떡",
    "address": "경기도 수원시 영통구 이의동 1336 힐스테이트광교중앙역상가 지하 2층 B259호 ",
    "phone": "",
    "hours": "이번 주 영업시간 표시",
    "rating": "",
    "lat": 37.2876443,
    "lng": 127.0569103
  },
  {
    "name": "코드91(Code91)",
    "searchQuery": "코드91 강화도 카페",
    "address": "인천광역시 강화군 화도면 마니산로 627 ",
    "phone": "010-2011-0700",
    "hours": "이번 주 영업시간 표시",
    "rating": "",
    "lat": 37.6346278,
    "lng": 126.4286293
  },
  {
    "name": "모어커피랩 more coffee lab",
    "searchQuery": "모어커피랩 전주 카페",
    "address": "전북특별자치도 전주시 덕진구 우아동3가 견훤로 726-7 424 우측 ",
    "phone": "050-71317-9499",
    "hours": "이번 주 영업시간 표시",
    "rating": "5.0",
    "lat": 35.8488398,
    "lng": 127.1523132
  },
  {
    "name": "브리나케오슈",
    "searchQuery": "브리나케오슈 제주 애월 베이커리",
    "address": "제주특별자치도 제주시 특별자치도, 고내3길 21-2 ",
    "phone": "050-71441-9086",
    "hours": "이번 주 영업시간 표시",
    "rating": "5.0",
    "lat": 33.4645946,
    "lng": 126.3362474
  },
  {
    "name": "앙베이커리(ang bakery)",
    "searchQuery": "위치앙베이커리 분당",
    "address": "경기도 성남시 분당구 정자일로 23 ",
    "phone": "070-8270-3689",
    "hours": "이번 주 영업시간 표시",
    "rating": "5.0",
    "lat": 37.3521034,
    "lng": 127.1057845
  },
  {
    "name": "버터",
    "searchQuery": "야탑버터떡카페 성남",
    "address": "경기도 성남시 분당구 야탑동 ",
    "phone": "031-780-3509",
    "hours": "",
    "rating": "",
    "lat": 37.4103789,
    "lng": 127.1272851
  }
]