[
  {
    "id": "shop-001",
    "name": "원조 상하이떡방",
    "address": "서울 종로구 종로3길 17",
    "lat": 37.5705,
    "lng": 126.9780,
    "phone": "02-1234-5678",
    "hours": "09:00-21:00",
    "closedDays": ["월요일"],
    "priceRange": "3000-5000",
    "tags": ["원조", "줄서는맛집"],
    "description": "30년 전통의 상하이버터떡 전문점. 매일 아침 직접 만드는 수제 버터떡이 인기.",
    "region": "서울"
  },
  {
    "id": "shop-002",
    "name": "버터떡 본가",
    "address": "서울 마포구 와우산로 94",
    "lat": 37.5536,
    "lng": 126.9219,
    "phone": "02-9876-5432",
    "hours": "10:00-20:00",
    "closedDays": ["일요일"],
    "priceRange": "3500-6000",
    "tags": ["인기", "포장가능"],
    "description": "홍대 근처 버터떡 맛집. 고소한 버터 향이 일품.",
    "region": "서울"
  },
  {
    "id": "shop-003",
    "name": "상하이 떡공방",
    "address": "경기 수원시 팔달구 인계로 166",
    "lat": 37.2636,
    "lng": 127.0286,
    "phone": "031-234-5678",
    "hours": "08:00-22:00",
    "closedDays": [],
    "priceRange": "2500-4500",
    "tags": ["가성비", "주차가능"],
    "description": "수원 인계동 맛집. 다양한 떡 종류와 함께 상하이버터떡 판매.",
    "region": "경기"
  },
  {
    "id": "shop-004",
    "name": "강남 버터떡집",
    "address": "서울 강남구 테헤란로 152",
    "lat": 37.5000,
    "lng": 127.0367,
    "phone": "02-555-1234",
    "hours": "11:00-21:00",
    "closedDays": ["월요일", "화요일"],
    "priceRange": "4000-7000",
    "tags": ["프리미엄"],
    "description": "강남 직장인들에게 인기있는 프리미엄 버터떡.",
    "region": "서울"
  },
  {
    "id": "shop-005",
    "name": "부산 상하이떡",
    "address": "부산 해운대구 해운대로 570",
    "lat": 35.1631,
    "lng": 129.1635,
    "phone": "051-777-8888",
    "hours": "09:30-20:30",
    "closedDays": ["수요일"],
    "priceRange": "3000-5000",
    "tags": ["해운대", "관광지맛집"],
    "description": "해운대 바닷바람과 함께 즐기는 버터떡.",
    "region": "부산"
  },
  {
    "id": "shop-006",
    "name": "전통 상하이떡마을",
    "address": "서울 성동구 왕십리로 115",
    "lat": null,
    "lng": null,
    "phone": "02-333-4444",
    "hours": "10:00-19:00",
    "closedDays": ["토요일", "일요일"],
    "priceRange": "2000-4000",
    "tags": ["전통방식"],
    "description": "성수동 골목에 숨은 전통 방식 버터떡집.",
    "region": "서울"
  }
]
