[
  {
    "id": "shop-001",
    "name": "연남허니밀크",
    "address": "서울 마포구 양화로23길 10-14 1층",
    "lat": 37.5593908,
    "lng": 126.9257928,
    "phone": "010-5584-7104",
    "hours": "",
    "closedDays": [],
    "priceRange": "",
    "tags": [
      "제과",
      "베이커리"
    ],
    "description": "상하이버터떡 판매 베이커리",
    "region": "서울"
  },
  {
    "id": "shop-002",
    "name": "하츠베이커리 노원점",
    "address": "서울특별시 노원구 공릉로41길 6",
    "lat": 37.6245987,
    "lng": 127.0786555,
    "phone": "",
    "hours": "",
    "closedDays": [],
    "priceRange": "",
    "tags": [
      "제과",
      "베이커리"
    ],
    "description": "상하이버터떡 판매 베이커리",
    "region": "서울"
  },
  {
    "id": "shop-003",
    "name": "하츠베이커리 논현점",
    "address": "서울특별시 강남구 학동로 342",
    "lat": 37.5167674,
    "lng": 127.0408857,
    "phone": "",
    "hours": "",
    "closedDays": [],
    "priceRange": "",
    "tags": [
      "제과",
      "베이커리"
    ],
    "description": "상하이버터떡 판매 베이커리",
    "region": "서울"
  },
  {
    "id": "shop-004",
    "name": "하츠베이커리 서초점",
    "address": "서울특별시 서초구 강남대로91길 12",
    "lat": 37.5120104,
    "lng": 127.0198886,
    "phone": "",
    "hours": "",
    "closedDays": [],
    "priceRange": "",
    "tags": [
      "제과",
      "베이커리"
    ],
    "description": "상하이버터떡 판매 베이커리",
    "region": "서울"
  },
  {
    "id": "shop-005",
    "name": "하츠베이커리 선릉점",
    "address": "서울특별시 강남구 선릉로161길 19",
    "lat": 37.5275858,
    "lng": 127.0381029,
    "phone": "",
    "hours": "",
    "closedDays": [],
    "priceRange": "",
    "tags": [
      "제과",
      "베이커리"
    ],
    "description": "상하이버터떡 판매 베이커리",
    "region": "서울"
  },
  {
    "id": "shop-006",
    "name": "하츠베이커리 성수점",
    "address": "서울특별시 성동구 성수이로24길 36",
    "lat": 37.5432858,
    "lng": 127.0537459,
    "phone": "",
    "hours": "화 AM 10:30에 영업 시작",
    "closedDays": [],
    "priceRange": "",
    "tags": [
      "제과",
      "베이커리"
    ],
    "description": "상하이버터떡 판매 베이커리",
    "region": "서울"
  },
  {
    "id": "shop-007",
    "name": "하츠베이커리 송파점",
    "address": "서울특별시 송파구 가락동 156",
    "lat": 37.5004047,
    "lng": 127.1271285,
    "phone": "02-407-3502",
    "hours": "임시 휴업",
    "closedDays": [],
    "priceRange": "",
    "tags": [
      "베이커리"
    ],
    "description": "상하이버터떡 판매",
    "region": "서울"
  },
  {
    "id": "shop-008",
    "name": "하츠베이커리 압구정점",
    "address": "서울특별시 강남구 도산대로17길 10",
    "lat": 37.5193766,
    "lng": 127.0248082,
    "phone": "",
    "hours": "",
    "closedDays": [],
    "priceRange": "",
    "tags": [
      "제과",
      "베이커리"
    ],
    "description": "상하이버터떡 판매 베이커리",
    "region": "서울"
  },
  {
    "id": "shop-009",
    "name": "하츠베이커리 은평점",
    "address": "서울특별시 은평구 진관4로 17",
    "lat": 37.6439703,
    "lng": 126.9217098,
    "phone": "",
    "hours": "",
    "closedDays": [],
    "priceRange": "",
    "tags": [
      "제과",
      "베이커리"
    ],
    "description": "상하이버터떡 판매 베이커리",
    "region": "서울"
  },
  {
    "id": "shop-010",
    "name": "하츠베이커리 잠실점",
    "address": "서울특별시 송파구 중대로 210",
    "lat": 37.5087854,
    "lng": 127.1327977,
    "phone": "",
    "hours": "",
    "closedDays": [],
    "priceRange": "",
    "tags": [
      "제과",
      "베이커리"
    ],
    "description": "상하이버터떡 판매 베이커리",
    "region": "서울"
  },
  {
    "id": "shop-011",
    "name": "달리당 수원본점",
    "address": "경기 수원시 팔달구 창룡대로80번길 15 1-3층",
    "lat": 37.2856991,
    "lng": 127.0236647,
    "phone": "070-8668-5156",
    "hours": "월요일,AM 8:00~PM 6:00",
    "closedDays": [],
    "priceRange": "",
    "tags": [
      "제과",
      "베이커리"
    ],
    "description": "상하이버터떡 판매 베이커리",
    "region": "경기"
  },
  {
    "id": "shop-012",
    "name": "수아카롱 본점",
    "address": "경기 수원시 영통구 도청로18번길 26 힐스테이트광교중앙역상가 지하2층 B259호",
    "lat": 37.2876443,
    "lng": 127.0569103,
    "phone": "0503-7153-8093",
    "hours": "월요일,휴무일",
    "closedDays": [],
    "priceRange": "",
    "tags": [
      "디저트카페"
    ],
    "description": "상하이버터떡 판매 디저트카페",
    "region": "경기"
  },
  {
    "id": "shop-013",
    "name": "스칼렛 베이커리",
    "address": "경기도 성남시 분당구 안골로48번길 5 1층",
    "lat": 37.3859202,
    "lng": 127.1369716,
    "phone": "",
    "hours": "월요일,AM 11:00~PM 6:00",
    "closedDays": [],
    "priceRange": "",
    "tags": [
      "베이커리"
    ],
    "description": "상하이버터떡 판매",
    "region": "경기"
  },
  {
    "id": "shop-014",
    "name": "앙베이커리",
    "address": "경기도 성남시 분당구 정자일로 23",
    "lat": 37.3521034,
    "lng": 127.1057845,
    "phone": "070-8270-3689",
    "hours": "월요일,AM 7:30~PM 4:00",
    "closedDays": [],
    "priceRange": "",
    "tags": [
      "베이커리"
    ],
    "description": "상하이버터떡 판매",
    "region": "경기"
  },
  {
    "id": "shop-015",
    "name": "디저트39 부평역점",
    "address": "인천광역시 부평구 시장로29번길 5",
    "lat": 37.4936613,
    "lng": 126.7253406,
    "phone": "032-518-1239",
    "hours": "월요일,AM 11:00~AM 12:00",
    "closedDays": [],
    "priceRange": "",
    "tags": [
      "디저트카페"
    ],
    "description": "상하이버터떡 판매",
    "region": "인천"
  },
  {
    "id": "shop-016",
    "name": "코드91",
    "address": "인천 강화군 화도면 마니산로 627 1층",
    "lat": 37.6346278,
    "lng": 126.4286293,
    "phone": "0503-7153-6453",
    "hours": "월요일,AM 9:00~PM 8:00",
    "closedDays": [],
    "priceRange": "",
    "tags": [
      "커피전문점"
    ],
    "description": "상하이버터떡 판매 커피전문점",
    "region": "인천"
  },
  {
    "id": "shop-017",
    "name": "휘도르",
    "address": "인천광역시 미추홀구 주안동 1525-1번지 1층",
    "lat": 37.4477528,
    "lng": 126.6874811,
    "phone": "032-519-1189",
    "hours": "",
    "closedDays": [],
    "priceRange": "",
    "tags": [
      "베이커리"
    ],
    "description": "상하이버터떡 판매",
    "region": "인천"
  },
  {
    "id": "shop-018",
    "name": "겐츠베이커리 롯데백화점부산본점",
    "address": "부산광역시 부산진구 가야대로 772 롯데 백화점 부산 본점 B1",
    "lat": 35.1569212,
    "lng": 129.0563172,
    "phone": "051-810-4099",
    "hours": "",
    "closedDays": [],
    "priceRange": "",
    "tags": [
      "베이커리"
    ],
    "description": "상하이버터떡 판매",
    "region": "부산"
  },
  {
    "id": "shop-019",
    "name": "모리베이커리",
    "address": "대구광역시 수성구 상록로11길 93",
    "lat": 35.8620389,
    "lng": 128.623224,
    "phone": "053-636-4674",
    "hours": "",
    "closedDays": [],
    "priceRange": "",
    "tags": [
      "베이커리"
    ],
    "description": "상하이버터떡 판매",
    "region": "대구"
  },
  {
    "id": "shop-020",
    "name": "미구제과 동구점",
    "address": "대구광역시 동구 동부로 207",
    "lat": 35.8542606,
    "lng": 128.5315267,
    "phone": "050-71366-6231",
    "hours": "",
    "closedDays": [],
    "priceRange": "",
    "tags": [
      "제과",
      "베이커리"
    ],
    "description": "상하이버터떡 판매 베이커리",
    "region": "대구"
  },
  {
    "id": "shop-021",
    "name": "미구제과 범어점",
    "address": "대구광역시 수성구 범어로24길 20",
    "lat": 35.8542606,
    "lng": 128.5315267,
    "phone": "050-71366-6231",
    "hours": "",
    "closedDays": [],
    "priceRange": "",
    "tags": [
      "제과",
      "베이커리"
    ],
    "description": "상하이버터떡 판매 베이커리",
    "region": "대구"
  },
  {
    "id": "shop-022",
    "name": "미구제과 본점",
    "address": "대구광역시 달서구 와룡로49길 101",
    "lat": 35.8542606,
    "lng": 128.5315267,
    "phone": "050-71366-6231",
    "hours": "",
    "closedDays": [],
    "priceRange": "",
    "tags": [
      "제과",
      "베이커리"
    ],
    "description": "상하이버터떡 판매 베이커리",
    "region": "대구"
  },
  {
    "id": "shop-023",
    "name": "미구제과 봉산점",
    "address": "대구광역시 중구 봉산문화길 43",
    "lat": 35.8542606,
    "lng": 128.5315267,
    "phone": "050-71366-6231",
    "hours": "",
    "closedDays": [],
    "priceRange": "",
    "tags": [
      "제과",
      "베이커리"
    ],
    "description": "상하이버터떡 판매 베이커리",
    "region": "대구"
  },
  {
    "id": "shop-024",
    "name": "미구제과 중앙점",
    "address": "대구광역시 중구 중앙대로 354-34",
    "lat": 35.8542606,
    "lng": 128.5315267,
    "phone": "050-71366-6231",
    "hours": "",
    "closedDays": [],
    "priceRange": "",
    "tags": [
      "제과",
      "베이커리"
    ],
    "description": "상하이버터떡 판매 베이커리",
    "region": "대구"
  },
  {
    "id": "shop-025",
    "name": "그런느낌",
    "address": "광주광역시 광산구 수완로9번길 22-1",
    "lat": 35.1848291,
    "lng": 126.8268853,
    "phone": "062-400-2580",
    "hours": "",
    "closedDays": [],
    "priceRange": "",
    "tags": [
      "카페"
    ],
    "description": "상하이버터떡 판매",
    "region": "광주"
  },
  {
    "id": "shop-026",
    "name": "디저트39 광주상무지구점",
    "address": "광주광역시 서구 치평로 86",
    "lat": 35.1548937,
    "lng": 126.8478146,
    "phone": "050-71496-7808",
    "hours": "",
    "closedDays": [],
    "priceRange": "",
    "tags": [
      "디저트카페"
    ],
    "description": "상하이버터떡 판매",
    "region": "광주"
  },
  {
    "id": "shop-027",
    "name": "디저트39 전대점",
    "address": "광주광역시 북구 중흥동 호동로 12-8",
    "lat": 35.1744537,
    "lng": 126.9142962,
    "phone": "062-268-2200",
    "hours": "",
    "closedDays": [],
    "priceRange": "",
    "tags": [
      "디저트카페"
    ],
    "description": "상하이버터떡 판매",
    "region": "광주"
  },
  {
    "id": "shop-028",
    "name": "크림집",
    "address": "광주광역시 광산구 하완길 26-12",
    "lat": 35.2017044,
    "lng": 126.8251912,
    "phone": "062-955-5151",
    "hours": "",
    "closedDays": [],
    "priceRange": "",
    "tags": [
      "디저트카페"
    ],
    "description": "상하이버터떡 판매",
    "region": "광주"
  },
  {
    "id": "shop-029",
    "name": "모어커피랩",
    "address": "전북특별자치도 전주시 덕진구 견훤로 424 1층",
    "lat": 35.8488398,
    "lng": 127.1523132,
    "phone": "0503-7153-8083",
    "hours": "",
    "closedDays": [],
    "priceRange": "",
    "tags": [
      "카페"
    ],
    "description": "상하이버터떡 판매 카페",
    "region": "전북"
  },
  {
    "id": "shop-030",
    "name": "김덕규과자점",
    "address": "경상남도 김해시 활천로 32번길 KR 호성상가 1층",
    "lat": 35.2307017,
    "lng": 128.8938844,
    "phone": "055-333-3874",
    "hours": "월요일,AM 7:00~PM 10:00",
    "closedDays": [],
    "priceRange": "",
    "tags": [
      "베이커리"
    ],
    "description": "상하이버터떡 판매",
    "region": "경남"
  },
  {
    "id": "shop-031",
    "name": "브리나케오슈",
    "address": "제주특별자치도 제주시 애월읍 고내3길 21-2",
    "lat": 33.4645946,
    "lng": 126.3362474,
    "phone": "0503-7152-8302",
    "hours": "",
    "closedDays": [],
    "priceRange": "",
    "tags": [
      "제과",
      "베이커리"
    ],
    "description": "상하이버터떡 판매 베이커리",
    "region": "제주"
  }
]
