[
  {
    "id": "shop-001",
    "name": "몬떼비공덕",
    "address": "서울 마포구 마포대로7길 17 1층 몬떼비 서울",
    "lat": 37.5480016,
    "lng": 126.9513964,
    "phone": "",
    "hours": "",
    "closedDays": [],
    "priceRange": "",
    "tags": [
      "카페",
      "디저트"
    ],
    "description": "카페 · 서울 마포구에 위치한 상하이버터떡 판매 매장",
    "region": "서울"
  },
  {
    "id": "shop-002",
    "name": "바이웨이 베이커스 영등포점",
    "address": "서울 영등포구 당산로27길 16 1층",
    "lat": 37.5251401,
    "lng": 126.8950285,
    "phone": "02-6101-2687",
    "hours": "",
    "closedDays": [],
    "priceRange": "",
    "tags": [
      "베이커리"
    ],
    "description": "베이커리 · 서울 영등포구에 위치한 상하이버터떡 판매 매장",
    "region": "서울"
  },
  {
    "name": "버터라이스클럽",
    "address": "서울특별시 용산구 한강대로7길 22-17",
    "phone": "",
    "hours": "",
    "closedDays": [],
    "priceRange": "",
    "tags": [
      "인기맛집"
    ],
    "description": "★ 4.5 · 용산의 인기 상하이버터떡 전문점",
    "region": "서울",
    "id": "shop-003",
    "lat": 37.5247422,
    "lng": 126.962669
  },
  {
    "id": "shop-004",
    "name": "설경케이크",
    "address": "서울 중랑구 상봉로1길 41 베아트리스 102동 1층",
    "lat": 37.5862079,
    "lng": 127.0931917,
    "phone": "0507-1314-2957",
    "hours": "",
    "closedDays": [],
    "priceRange": "",
    "tags": [
      "떡",
      "한과"
    ],
    "description": "떡 · 서울 중랑구에 위치한 상하이버터떡 판매 매장",
    "region": "서울"
  },
  {
    "id": "shop-005",
    "name": "스위츠포레스트",
    "address": "서울 광진구 면목로 86 1층 101호",
    "lat": 37.5574238,
    "lng": 127.0771728,
    "phone": "0507-1418-2066",
    "hours": "",
    "closedDays": [],
    "priceRange": "",
    "tags": [
      "카페",
      "디저트"
    ],
    "description": "카페 · 서울 광진구에 위치한 상하이버터떡 판매 매장",
    "region": "서울"
  },
  {
    "id": "shop-006",
    "name": "스탠다트커피웍스",
    "address": "서울 중구 퇴계로49길 6 1층",
    "lat": 37.5632014,
    "lng": 126.9997001,
    "phone": "0507-1428-0007",
    "hours": "",
    "closedDays": [],
    "priceRange": "",
    "tags": [
      "카페",
      "디저트"
    ],
    "description": "카페 · 서울 중구에 위치한 상하이버터떡 판매 매장",
    "region": "서울"
  },
  {
    "id": "shop-007",
    "name": "시에로시네마",
    "address": "서울 동대문구 서울시립대로 80-1 2호",
    "lat": 37.5739999,
    "lng": 127.0460061,
    "phone": "0507-1328-8023",
    "hours": "",
    "closedDays": [],
    "priceRange": "",
    "tags": [
      "카페",
      "디저트"
    ],
    "description": "카페 · 서울 동대문구에 위치한 상하이버터떡 판매 매장",
    "region": "서울"
  },
  {
    "id": "shop-008",
    "name": "애드커피",
    "address": "서울 영등포구 당산로 175 101호, 102호 애드커피",
    "lat": 37.5323243,
    "lng": 126.9008149,
    "phone": "0507-1419-2465",
    "hours": "",
    "closedDays": [],
    "priceRange": "",
    "tags": [
      "카페",
      "디저트"
    ],
    "description": "카페 · 서울 영등포구에 위치한 상하이버터떡 판매 매장",
    "region": "서울"
  },
  {
    "id": "shop-009",
    "name": "연남허니밀크",
    "address": "서울 마포구 양화로23길 10-14 1층",
    "lat": 37.5593908,
    "lng": 126.9257928,
    "phone": "02-3144-7104",
    "hours": "",
    "closedDays": [],
    "priceRange": "",
    "tags": [
      "제과",
      "베이커리",
      "제과점"
    ],
    "description": "★ 5.0 · 제과점 · 연남동에 위치한 상하이버터떡 판매 베이커리",
    "region": "서울"
  },
  {
    "id": "shop-010",
    "name": "원투고홈",
    "address": "서울 서대문구 충정로5길 14 1층",
    "lat": 37.5627504,
    "lng": 126.9631478,
    "phone": "0507-1383-7262",
    "hours": "",
    "closedDays": [],
    "priceRange": "",
    "tags": [
      "카페",
      "디저트"
    ],
    "description": "카페 · 서울 서대문구에 위치한 상하이버터떡 판매 매장",
    "region": "서울"
  },
  {
    "id": "shop-011",
    "name": "위드마카롱",
    "address": "서울 중랑구 사가정로49길 6 1층",
    "lat": 37.5811748,
    "lng": 127.0866767,
    "phone": "0507-1342-2890",
    "hours": "",
    "closedDays": [],
    "priceRange": "",
    "tags": [
      "베이커리"
    ],
    "description": "베이커리 · 서울 중랑구에 위치한 상하이버터떡 판매 매장",
    "region": "서울"
  },
  {
    "id": "shop-012",
    "name": "잠실 고소리향과자점 송파방이점",
    "address": "서울 송파구 가락로 252 1층 102호",
    "lat": 37.5103952,
    "lng": 127.1184866,
    "phone": "0507-1378-2095",
    "hours": "",
    "closedDays": [],
    "priceRange": "",
    "tags": [
      "베이커리"
    ],
    "description": "베이커리 · 서울 송파구에 위치한 상하이버터떡 판매 매장",
    "region": "서울"
  },
  {
    "id": "shop-013",
    "name": "잼인브레드",
    "address": "서울 마포구 월드컵로17길 36 지1층",
    "lat": 37.5564633,
    "lng": 126.908201,
    "phone": "",
    "hours": "",
    "closedDays": [],
    "priceRange": "",
    "tags": [
      "베이커리"
    ],
    "description": "베이커리 · 서울 마포구에 위치한 상하이버터떡 판매 매장",
    "region": "서울"
  },
  {
    "name": "창억떡집",
    "address": "서울특별시 서초구 강남대로53길 12",
    "phone": "",
    "hours": "",
    "closedDays": [],
    "priceRange": "",
    "tags": [
      "떡집"
    ],
    "description": "떡집 · 서초구에 위치한 전통 떡집에서 상하이버터떡 판매",
    "region": "서울",
    "id": "shop-014",
    "lat": 37.4943902,
    "lng": 127.027692
  },
  {
    "id": "shop-015",
    "name": "카페 아콥트 군자",
    "address": "서울 광진구 능동로24길 100 1층",
    "lat": 37.5520928,
    "lng": 127.0787487,
    "phone": "0507-1363-9907",
    "hours": "",
    "closedDays": [],
    "priceRange": "",
    "tags": [
      "카페",
      "디저트"
    ],
    "description": "카페 · 서울 광진구에 위치한 상하이버터떡 판매 매장",
    "region": "서울"
  },
  {
    "id": "shop-016",
    "name": "카페나리나무",
    "address": "서울 용산구 청파로47길 47-12 지하1층 카페나리나무",
    "lat": 37.5450868,
    "lng": 126.9656934,
    "phone": "0507-1379-1369",
    "hours": "",
    "closedDays": [],
    "priceRange": "",
    "tags": [
      "카페",
      "디저트"
    ],
    "description": "카페 · 서울 용산구에 위치한 상하이버터떡 판매 매장",
    "region": "서울"
  },
  {
    "id": "shop-017",
    "name": "카페니트",
    "address": "서울 영등포구 도신로25길 15-2 1층",
    "lat": 37.5087049,
    "lng": 126.9021341,
    "phone": "0507-1383-1554",
    "hours": "",
    "closedDays": [],
    "priceRange": "",
    "tags": [
      "카페"
    ],
    "description": "카페 · 서울 영등포구에 위치한 상하이버터떡 판매 매장",
    "region": "서울"
  },
  {
    "id": "shop-018",
    "name": "카페욜로",
    "address": "서울 금천구 벚꽃로 30 롯데2차 상가 지하 1층 111호 카페욜로",
    "lat": 37.4581199,
    "lng": 126.8940485,
    "phone": "02-807-2629",
    "hours": "",
    "closedDays": [],
    "priceRange": "",
    "tags": [
      "카페",
      "디저트"
    ],
    "description": "카페 · 서울 금천구에 위치한 상하이버터떡 판매 매장",
    "region": "서울"
  },
  {
    "id": "shop-019",
    "name": "카페포엠",
    "address": "서울 강남구 압구정로4길 13-11",
    "lat": 37.5216487,
    "lng": 127.0203442,
    "phone": "0507-1434-4463",
    "hours": "",
    "closedDays": [],
    "priceRange": "",
    "tags": [
      "카페"
    ],
    "description": "카페 · 서울 강남구에 위치한 상하이버터떡 판매 매장",
    "region": "서울"
  },
  {
    "id": "shop-020",
    "name": "카프",
    "address": "서울 은평구 백련산로 177-11 1층",
    "lat": 37.594284,
    "lng": 126.9230477,
    "phone": "",
    "hours": "",
    "closedDays": [],
    "priceRange": "",
    "tags": [
      "카페",
      "디저트"
    ],
    "description": "카페 · 서울 은평구에 위치한 상하이버터떡 판매 매장",
    "region": "서울"
  },
  {
    "id": "shop-021",
    "name": "칼트칼터칼트",
    "address": "서울 용산구 녹사평대로40가길 3-3 B1",
    "lat": 37.5352789,
    "lng": 126.987692,
    "phone": "0507-1371-1328",
    "hours": "",
    "closedDays": [],
    "priceRange": "",
    "tags": [
      "카페",
      "디저트"
    ],
    "description": "카페 · 서울 용산구에 위치한 상하이버터떡 판매 매장",
    "region": "서울"
  },
  {
    "id": "shop-022",
    "name": "코코하우스",
    "address": "서울 마포구 월드컵로25길 26 1-029호",
    "lat": 37.5573385,
    "lng": 126.9022308,
    "phone": "",
    "hours": "",
    "closedDays": [],
    "priceRange": "",
    "tags": [
      "카페",
      "디저트"
    ],
    "description": "카페 · 서울 마포구에 위치한 상하이버터떡 판매 매장",
    "region": "서울"
  },
  {
    "id": "shop-023",
    "name": "쿠루커피",
    "address": "서울 금천구 독산로 112 1층 코너",
    "lat": 37.4582737,
    "lng": 126.9052474,
    "phone": "0507-1300-9148",
    "hours": "",
    "closedDays": [],
    "priceRange": "",
    "tags": [
      "카페",
      "디저트"
    ],
    "description": "카페 · 서울 금천구에 위치한 상하이버터떡 판매 매장",
    "region": "서울"
  },
  {
    "id": "shop-024",
    "name": "쿠운 신논현본점",
    "address": "서울 서초구 강남대로83길 18 104호",
    "lat": 37.506364,
    "lng": 127.0223783,
    "phone": "0507-1338-1809",
    "hours": "",
    "closedDays": [],
    "priceRange": "",
    "tags": [
      "카페",
      "디저트"
    ],
    "description": "카페 · 서울 서초구에 위치한 상하이버터떡 판매 매장",
    "region": "서울"
  },
  {
    "id": "shop-025",
    "name": "쿠키포레스트",
    "address": "서울 강북구 솔매로 94 1층 103호",
    "lat": 37.6251058,
    "lng": 127.0131457,
    "phone": "",
    "hours": "",
    "closedDays": [],
    "priceRange": "",
    "tags": [
      "카페",
      "디저트"
    ],
    "description": "카페 · 서울 강북구에 위치한 상하이버터떡 판매 매장",
    "region": "서울"
  },
  {
    "id": "shop-026",
    "name": "하츠베이커리 노원점",
    "address": "서울특별시 노원구 공릉로41길 6",
    "lat": 37.6245987,
    "lng": 127.0786555,
    "phone": "",
    "hours": "",
    "closedDays": [],
    "priceRange": "",
    "tags": [
      "제과",
      "베이커리"
    ],
    "description": "베이커리 · 노원에 위치한 하츠베이커리의 상하이버터떡 판매 지점",
    "region": "서울"
  },
  {
    "id": "shop-027",
    "name": "하츠베이커리 논현점",
    "address": "서울특별시 강남구 학동로 342",
    "lat": 37.5167674,
    "lng": 127.0408857,
    "phone": "",
    "hours": "",
    "closedDays": [],
    "priceRange": "",
    "tags": [
      "제과",
      "베이커리"
    ],
    "description": "베이커리 · 논현에 위치한 하츠베이커리의 상하이버터떡 판매 지점",
    "region": "서울"
  },
  {
    "id": "shop-028",
    "name": "하츠베이커리 서초점",
    "address": "서울특별시 서초구 강남대로91길 12",
    "lat": 37.5120104,
    "lng": 127.0198886,
    "phone": "",
    "hours": "",
    "closedDays": [],
    "priceRange": "",
    "tags": [
      "제과",
      "베이커리"
    ],
    "description": "베이커리 · 서초에 위치한 하츠베이커리의 상하이버터떡 판매 지점",
    "region": "서울"
  },
  {
    "id": "shop-029",
    "name": "하츠베이커리 선릉점",
    "address": "서울특별시 강남구 선릉로161길 19",
    "lat": 37.5275858,
    "lng": 127.0381029,
    "phone": "",
    "hours": "",
    "closedDays": [],
    "priceRange": "",
    "tags": [
      "제과",
      "베이커리"
    ],
    "description": "베이커리 · 선릉에 위치한 하츠베이커리의 상하이버터떡 판매 지점",
    "region": "서울"
  },
  {
    "id": "shop-030",
    "name": "하츠베이커리 성수점",
    "address": "서울특별시 성동구 성수이로24길 36",
    "lat": 37.5432858,
    "lng": 127.0537459,
    "phone": "",
    "hours": "화 AM 10:30에 영업 시작",
    "closedDays": [],
    "priceRange": "",
    "tags": [
      "제과",
      "베이커리",
      "제과점"
    ],
    "description": "★ 5.0 (1개 리뷰) · 제과점 · 성수동에 위치한 상하이버터떡 전문 베이커리",
    "region": "서울"
  },
  {
    "id": "shop-031",
    "name": "하츠베이커리 송파점",
    "address": "서울특별시 송파구 가락동 156",
    "lat": 37.5004047,
    "lng": 127.1271285,
    "phone": "02-407-3502",
    "hours": "임시 휴업",
    "closedDays": [],
    "priceRange": "",
    "tags": [
      "베이커리",
      "카페"
    ],
    "description": "★ 4.0 · 카페 · 현재 임시 휴업 중인 송파구 베이커리",
    "region": "서울"
  },
  {
    "id": "shop-032",
    "name": "하츠베이커리 압구정점",
    "address": "서울특별시 강남구 도산대로17길 10",
    "lat": 37.5193766,
    "lng": 127.0248082,
    "phone": "",
    "hours": "",
    "closedDays": [],
    "priceRange": "",
    "tags": [
      "제과",
      "베이커리"
    ],
    "description": "베이커리 · 압구정에 위치한 하츠베이커리의 상하이버터떡 판매 지점",
    "region": "서울"
  },
  {
    "id": "shop-033",
    "name": "하츠베이커리 은평점",
    "address": "서울특별시 은평구 진관4로 17",
    "lat": 37.6439703,
    "lng": 126.9217098,
    "phone": "",
    "hours": "",
    "closedDays": [],
    "priceRange": "",
    "tags": [
      "제과",
      "베이커리"
    ],
    "description": "베이커리 · 은평에 위치한 하츠베이커리의 상하이버터떡 판매 지점",
    "region": "서울"
  },
  {
    "id": "shop-034",
    "name": "하츠베이커리 잠실점",
    "address": "서울특별시 송파구 중대로 210",
    "lat": 37.5087854,
    "lng": 127.1327977,
    "phone": "",
    "hours": "",
    "closedDays": [],
    "priceRange": "",
    "tags": [
      "제과",
      "베이커리"
    ],
    "description": "베이커리 · 잠실에 위치한 하츠베이커리의 상하이버터떡 판매 지점",
    "region": "서울"
  },
  {
    "id": "shop-035",
    "name": "호카호카",
    "address": "서울 양천구 목동중앙북로16길 41 102호",
    "lat": 37.5443236,
    "lng": 126.8740028,
    "phone": "0507-1488-0319",
    "hours": "",
    "closedDays": [],
    "priceRange": "",
    "tags": [
      "카페",
      "디저트"
    ],
    "description": "카페 · 서울 양천구에 위치한 상하이버터떡 판매 매장",
    "region": "서울"
  },
  {
    "id": "shop-036",
    "name": "구움숲",
    "address": "경기 수원시 영통구 덕영대로1556번길 16 D동 1층 162호",
    "lat": 37.2449686,
    "lng": 127.0600806,
    "phone": "0507-1406-6125",
    "hours": "",
    "closedDays": [],
    "priceRange": "",
    "tags": [
      "베이커리"
    ],
    "description": "베이커리 · 경기 수원시에 위치한 상하이버터떡 판매 매장",
    "region": "경기"
  },
  {
    "id": "shop-037",
    "name": "노이지",
    "address": "경기 양주시 회정로 135 108-1호",
    "lat": 37.8377116,
    "lng": 127.0683529,
    "phone": "0507-1465-7338",
    "hours": "",
    "closedDays": [],
    "priceRange": "",
    "tags": [
      "카페",
      "디저트"
    ],
    "description": "카페 · 경기 양주시에 위치한 상하이버터떡 판매 매장",
    "region": "경기"
  },
  {
    "id": "shop-038",
    "name": "달리당 수원본점",
    "address": "경기 수원시 팔달구 창룡대로80번길 15 1-3층",
    "lat": 37.2856991,
    "lng": 127.0236647,
    "phone": "050-71427-7729",
    "hours": "월요일,AM 8:00~PM 6:00",
    "closedDays": [],
    "priceRange": "",
    "tags": [
      "제과",
      "베이커리",
      "카페"
    ],
    "description": "★ 4.6 · 카페 · 수원 팔달구에서 상하이버터떡과 디저트를 즐길 수 있는 카페",
    "region": "경기"
  },
  {
    "id": "shop-039",
    "name": "라이스랩",
    "address": "경기 화성시 만세구 향남읍 방죽로 22-8 상가동 101호",
    "lat": 37.5734383,
    "lng": 126.9250655,
    "phone": "0507-1305-9451",
    "hours": "",
    "closedDays": [],
    "priceRange": "",
    "tags": [
      "카페",
      "디저트"
    ],
    "description": "카페 · 경기 화성시에 위치한 상하이버터떡 판매 매장",
    "region": "경기"
  },
  {
    "id": "shop-040",
    "name": "바이웨이 베이커스 별내점",
    "address": "경기 남양주시 덕송2로10번길 27-10 1층 104호",
    "lat": 37.6672545,
    "lng": 127.1163668,
    "phone": "",
    "hours": "",
    "closedDays": [],
    "priceRange": "",
    "tags": [
      "베이커리"
    ],
    "description": "베이커리 · 경기 남양주시에 위치한 상하이버터떡 판매 매장",
    "region": "경기"
  },
  {
    "id": "shop-041",
    "name": "바이웨이 베이커스 청사본점",
    "address": "경기 의정부시 청사로5번길 26 경남빌딩 1층 109호",
    "lat": 37.7487683,
    "lng": 127.0696286,
    "phone": "",
    "hours": "",
    "closedDays": [],
    "priceRange": "",
    "tags": [
      "베이커리"
    ],
    "description": "베이커리 · 경기 의정부시에 위치한 상하이버터떡 판매 매장",
    "region": "경기"
  },
  {
    "id": "shop-042",
    "name": "버터앙굼",
    "address": "경기 안양시 동안구 동편로27번길 33 101호",
    "lat": 37.4076874,
    "lng": 126.9715101,
    "phone": "0507-1350-9467",
    "hours": "",
    "closedDays": [],
    "priceRange": "",
    "tags": [
      "카페",
      "디저트"
    ],
    "description": "카페 · 경기 안양시에 위치한 상하이버터떡 판매 매장",
    "region": "경기"
  },
  {
    "id": "shop-043",
    "name": "세이데어",
    "address": "경기 평택시 탄현로 17-6 인슈프라자 1층",
    "lat": 37.0536204,
    "lng": 127.0531531,
    "phone": "0507-1361-4368",
    "hours": "",
    "closedDays": [],
    "priceRange": "",
    "tags": [
      "카페",
      "디저트"
    ],
    "description": "카페 · 경기 평택시에 위치한 상하이버터떡 판매 매장",
    "region": "경기"
  },
  {
    "id": "shop-044",
    "name": "수아카롱 본점",
    "address": "경기 수원시 영통구 도청로18번길 26 힐스테이트광교중앙역상가 지하2층 B259호",
    "lat": 37.2876443,
    "lng": 127.0569103,
    "phone": "0503-7153-8093",
    "hours": "월요일,휴무일",
    "closedDays": [],
    "priceRange": "",
    "tags": [
      "디저트카페",
      "제과점"
    ],
    "description": "제과점 · 수원 영통 광교중앙역 인근 마카롱과 상하이버터떡을 판매하는 디저트 전문점",
    "region": "경기"
  },
  {
    "id": "shop-045",
    "name": "수플레이스",
    "address": "경기 광명시 소하로92번길 11",
    "lat": 37.4463122,
    "lng": 126.8819769,
    "phone": "",
    "hours": "",
    "closedDays": [],
    "priceRange": "",
    "tags": [
      "카페",
      "디저트"
    ],
    "description": "카페 · 경기 광명시에 위치한 상하이버터떡 판매 매장",
    "region": "경기"
  },
  {
    "id": "shop-046",
    "name": "스윗 스노우 케이크",
    "address": "경기 부천시 원미구 길주로 234 힐스테이트 상가 2층 2047호 sweet snow",
    "lat": 37.5033118,
    "lng": 126.7678997,
    "phone": "0507-1404-1253",
    "hours": "",
    "closedDays": [],
    "priceRange": "",
    "tags": [
      "카페",
      "디저트"
    ],
    "description": "카페 · 경기 부천시에 위치한 상하이버터떡 판매 매장",
    "region": "경기"
  },
  {
    "id": "shop-047",
    "name": "스칼렛 베이커리",
    "address": "경기도 성남시 분당구 안골로48번길 5 1층",
    "lat": 37.3859202,
    "lng": 127.1369716,
    "phone": "",
    "hours": "월요일,AM 11:00~PM 6:00",
    "closedDays": [],
    "priceRange": "",
    "tags": [
      "베이커리",
      "디저트 전문점"
    ],
    "description": "★ 4.5 · 디저트 전문점 · 분당에서 상하이버터떡을 포함한 다양한 디저트를 판매하는 베이커리",
    "region": "경기"
  },
  {
    "id": "shop-048",
    "name": "쌀퐁당 떡케이크",
    "address": "경기 양주시 옥정동로7길 40 파크프라자 2층 쌀퐁당",
    "lat": 37.8209793,
    "lng": 127.0971505,
    "phone": "0507-1369-7644",
    "hours": "",
    "closedDays": [],
    "priceRange": "",
    "tags": [
      "카페",
      "디저트"
    ],
    "description": "카페 · 경기 양주시에 위치한 상하이버터떡 판매 매장",
    "region": "경기"
  },
  {
    "id": "shop-049",
    "name": "아우리움",
    "address": "경기 시흥시 신천6길 13",
    "lat": 37.4374034,
    "lng": 126.7803721,
    "phone": "0507-1363-9031",
    "hours": "",
    "closedDays": [],
    "priceRange": "",
    "tags": [
      "카페"
    ],
    "description": "카페 · 시흥 시흥시에 위치한 상하이버터떡 판매 매장",
    "region": "경기"
  },
  {
    "id": "shop-050",
    "name": "앙베이커리",
    "address": "경기도 성남시 분당구 정자일로 23",
    "lat": 37.3521034,
    "lng": 127.1057845,
    "phone": "070-8270-3689",
    "hours": "월요일,AM 7:30~PM 4:00",
    "closedDays": [],
    "priceRange": "",
    "tags": [
      "베이커리",
      "카페"
    ],
    "description": "★ 5.0 · 카페 · 분당 정자동에서 이른 아침부터 상하이버터떡을 만날 수 있는 베이커리 카페",
    "region": "경기"
  },
  {
    "id": "shop-051",
    "name": "오늘1307",
    "address": "경기 화성시 동탄구 동탄시범한빛길 15 1층 103호",
    "lat": 37.208201,
    "lng": 127.0664711,
    "phone": "0507-1367-7098",
    "hours": "",
    "closedDays": [],
    "priceRange": "",
    "tags": [
      "카페",
      "디저트"
    ],
    "description": "카페 · 경기 화성시에 위치한 상하이버터떡 판매 매장",
    "region": "경기"
  },
  {
    "id": "shop-052",
    "name": "윌로우 우드",
    "address": "경기 시흥시 서울대학로278번길 19-13",
    "lat": 37.3709989,
    "lng": 126.7270164,
    "phone": "031-497-5696",
    "hours": "",
    "closedDays": [],
    "priceRange": "",
    "tags": [
      "카페",
      "디저트"
    ],
    "description": "카페 · 시흥 시흥시에 위치한 상하이버터떡 판매 매장",
    "region": "경기"
  },
  {
    "name": "조안나카페",
    "address": "경기도 시흥시 은계중앙로 247",
    "phone": "010-4965-1734",
    "hours": "",
    "closedDays": [],
    "priceRange": "",
    "tags": [
      "카페"
    ],
    "description": "카페 · 시흥 은계동에 위치한 상하이버터떡 판매 카페",
    "region": "경기",
    "id": "shop-053",
    "lat": 37.4491306,
    "lng": 126.8024345
  },
  {
    "id": "shop-054",
    "name": "카페 저스틴",
    "address": "경기 김포시 김포한강1로 309 1112동 103호",
    "lat": 37.5165614,
    "lng": 126.8547073,
    "phone": "070-4419-0914",
    "hours": "",
    "closedDays": [],
    "priceRange": "",
    "tags": [
      "카페",
      "디저트"
    ],
    "description": "카페 · 경기 김포시에 위치한 상하이버터떡 판매 매장",
    "region": "경기"
  },
  {
    "id": "shop-055",
    "name": "커피바람의날개를달다",
    "address": "경기 고양시 덕양구 원당로33번길 21 1층 커피바람의날개를달다",
    "lat": 37.656855,
    "lng": 126.831218,
    "phone": "0507-1440-0604",
    "hours": "",
    "closedDays": [],
    "priceRange": "",
    "tags": [
      "카페",
      "디저트"
    ],
    "description": "카페 · 경기 고양시에 위치한 상하이버터떡 판매 매장",
    "region": "경기"
  },
  {
    "id": "shop-056",
    "name": "쿠키가미래당",
    "address": "경기 성남시 중원구 둔촌대로135번길 16 1층 쿠키가미래당",
    "lat": 37.4411438,
    "lng": 127.1464443,
    "phone": "0507-1321-0336",
    "hours": "",
    "closedDays": [],
    "priceRange": "",
    "tags": [
      "베이커리"
    ],
    "description": "베이커리 · 경기 성남시에 위치한 상하이버터떡 판매 매장",
    "region": "경기"
  },
  {
    "id": "shop-057",
    "name": "퀸즈커피",
    "address": "경기 시흥시 서울대학로278번길 26",
    "lat": 37.3689085,
    "lng": 126.7279562,
    "phone": "0507-2085-0550",
    "hours": "",
    "closedDays": [],
    "priceRange": "",
    "tags": [
      "카페"
    ],
    "description": "카페 · 시흥 시흥시에 위치한 상하이버터떡 판매 매장",
    "region": "경기"
  },
  {
    "id": "shop-058",
    "name": "크라프트온도",
    "address": "경기 고양시 덕양구 화중로152번길 6-24 1층 크라프트온도",
    "lat": 37.6398625,
    "lng": 126.8339183,
    "phone": "0507-1342-1328",
    "hours": "",
    "closedDays": [],
    "priceRange": "",
    "tags": [
      "카페",
      "디저트"
    ],
    "description": "카페 · 경기 고양시에 위치한 상하이버터떡 판매 매장",
    "region": "경기"
  },
  {
    "id": "shop-059",
    "name": "트렌드나우",
    "address": "경기 부천시 오정구 원종로 33 1층",
    "lat": 37.5262525,
    "lng": 126.8223256,
    "phone": "0507-1343-7564",
    "hours": "",
    "closedDays": [],
    "priceRange": "",
    "tags": [
      "카페",
      "디저트"
    ],
    "description": "카페 · 경기 부천시에 위치한 상하이버터떡 판매 매장",
    "region": "경기"
  },
  {
    "id": "shop-060",
    "name": "파란만잔 안성공도점",
    "address": "경기 안성시 공도읍 공도로 35 나동 1, 2층",
    "lat": 36.9985312,
    "lng": 127.1653684,
    "phone": "0507-1388-3480",
    "hours": "",
    "closedDays": [],
    "priceRange": "",
    "tags": [
      "카페"
    ],
    "description": "카페 · 경기 안성시에 위치한 상하이버터떡 판매 매장",
    "region": "경기"
  },
  {
    "id": "shop-061",
    "name": "페지코히",
    "address": "경기 안산시 단원구 광덕서로 54 종로프라자 101호",
    "lat": 37.3093926,
    "lng": 126.8273231,
    "phone": "0507-1465-1394",
    "hours": "",
    "closedDays": [],
    "priceRange": "",
    "tags": [
      "베이커리"
    ],
    "description": "베이커리 · 경기 안산시에 위치한 상하이버터떡 판매 매장",
    "region": "경기"
  },
  {
    "id": "shop-062",
    "name": "하이테이블 구래점",
    "address": "경기 김포시 김포한강9로75번길 38 맥스타워104호 하이테이블",
    "lat": 37.6433271,
    "lng": 126.6233528,
    "phone": "0507-1353-8917",
    "hours": "",
    "closedDays": [],
    "priceRange": "",
    "tags": [
      "카페",
      "디저트"
    ],
    "description": "카페 · 경기 김포시에 위치한 상하이버터떡 판매 매장",
    "region": "경기"
  },
  {
    "id": "shop-063",
    "name": "해블랑디저트",
    "address": "경기 시흥시 서울대학로264번길 26-32",
    "lat": 37.3683921,
    "lng": 126.7267605,
    "phone": "0507-1372-5199",
    "hours": "",
    "closedDays": [],
    "priceRange": "",
    "tags": [
      "카페",
      "디저트"
    ],
    "description": "카페 · 시흥 시흥시에 위치한 상하이버터떡 판매 매장",
    "region": "경기"
  },
  {
    "id": "shop-064",
    "name": "달콤한율작업실",
    "address": "인천 남동구 백범로226번길 34 1층 일부호",
    "lat": 37.4617862,
    "lng": 126.7247451,
    "phone": "0507-1337-0631",
    "hours": "",
    "closedDays": [],
    "priceRange": "",
    "tags": [
      "카페",
      "디저트"
    ],
    "description": "카페 · 인천 남동구에 위치한 상하이버터떡 판매 매장",
    "region": "인천"
  },
  {
    "id": "shop-065",
    "name": "무니크",
    "address": "인천 연수구 센트럴로 313 씨워크인테라스한라 B동 7층 711호",
    "lat": 37.424906,
    "lng": 126.697607,
    "phone": "0507-1383-0460",
    "hours": "",
    "closedDays": [],
    "priceRange": "",
    "tags": [
      "케이크전문"
    ],
    "description": "케이크전문 · 인천 연수구에 위치한 상하이버터떡 판매 매장",
    "region": "인천"
  },
  {
    "id": "shop-066",
    "name": "봄내음 카페",
    "address": "인천 계양구 임학동로 25 1층 봄내음",
    "lat": 37.5447683,
    "lng": 126.7363071,
    "phone": "",
    "hours": "",
    "closedDays": [],
    "priceRange": "",
    "tags": [
      "카페",
      "디저트"
    ],
    "description": "카페 · 인천 계양구에 위치한 상하이버터떡 판매 매장",
    "region": "인천"
  },
  {
    "id": "shop-067",
    "name": "에멘탈커피 청라점",
    "address": "인천 서구 푸른로16번길 9 1층",
    "lat": 37.5238324,
    "lng": 126.6294384,
    "phone": "0507-1478-0221",
    "hours": "",
    "closedDays": [],
    "priceRange": "",
    "tags": [
      "카페",
      "디저트"
    ],
    "description": "카페 · 인천 서구에 위치한 상하이버터떡 판매 매장",
    "region": "인천"
  },
  {
    "id": "shop-068",
    "name": "와플로아",
    "address": "인천 남동구 성말로 31 화성파크빌 101호",
    "lat": 37.4453792,
    "lng": 126.7040344,
    "phone": "0507-1409-0305",
    "hours": "",
    "closedDays": [],
    "priceRange": "",
    "tags": [
      "카페",
      "디저트"
    ],
    "description": "카페 · 인천 남동구에 위치한 상하이버터떡 판매 매장",
    "region": "인천"
  },
  {
    "id": "shop-069",
    "name": "코드91",
    "address": "인천 강화군 화도면 마니산로 627 1층",
    "lat": 37.6346278,
    "lng": 126.4286293,
    "phone": "0503-7153-6453",
    "hours": "월요일,AM 9:00~PM 8:00",
    "closedDays": [],
    "priceRange": "",
    "tags": [
      "커피전문점",
      "커피숍"
    ],
    "description": "커피숍 · 강화도 마니산 인근에서 상하이버터떡을 함께 즐길 수 있는 카페",
    "region": "인천"
  },
  {
    "id": "shop-070",
    "name": "단가루 곳간",
    "address": "부산 수영구 수영로588번길 40 1층",
    "lat": 35.1577991,
    "lng": 129.1166416,
    "phone": "0507-1427-1379",
    "hours": "",
    "closedDays": [],
    "priceRange": "",
    "tags": [
      "카페",
      "디저트"
    ],
    "description": "카페 · 부산 수영구에 위치한 상하이버터떡 판매 매장",
    "region": "부산"
  },
  {
    "id": "shop-071",
    "name": "메이노하마",
    "address": "부산 동래구 동래로 41 1층",
    "lat": 35.211692,
    "lng": 129.078733,
    "phone": "0503-5260-5771",
    "hours": "",
    "closedDays": [],
    "priceRange": "",
    "tags": [
      "베이커리"
    ],
    "description": "베이커리 · 부산 동래구에 위치한 상하이버터떡 판매 매장",
    "region": "부산"
  },
  {
    "id": "shop-072",
    "name": "베이크드 투데이",
    "address": "부산 수영구 민락로34번길 12-3 2층",
    "lat": 35.1582636,
    "lng": 129.122377,
    "phone": "0507-1320-3917",
    "hours": "",
    "closedDays": [],
    "priceRange": "",
    "tags": [
      "카페",
      "디저트"
    ],
    "description": "카페 · 부산 수영구에 위치한 상하이버터떡 판매 매장",
    "region": "부산"
  },
  {
    "id": "shop-073",
    "name": "슈가몽 마카롱 & 케이크",
    "address": "부산 기장군 정관읍 구연방곡로 72 102호",
    "lat": 35.3246427,
    "lng": 129.1888961,
    "phone": "0507-1355-9579",
    "hours": "",
    "closedDays": [],
    "priceRange": "",
    "tags": [
      "카페",
      "디저트"
    ],
    "description": "카페 · 부산 기장군에 위치한 상하이버터떡 판매 매장",
    "region": "부산"
  },
  {
    "id": "shop-074",
    "name": "엔젤키친",
    "address": "부산 금정구 수림로 12 상가동 104호",
    "lat": 35.2400734,
    "lng": 129.0836665,
    "phone": "0507-1328-2565",
    "hours": "",
    "closedDays": [],
    "priceRange": "",
    "tags": [
      "베이커리"
    ],
    "description": "베이커리 · 부산 금정구에 위치한 상하이버터떡 판매 매장",
    "region": "부산"
  },
  {
    "id": "shop-075",
    "name": "카페델타",
    "address": "부산 강서구 명지국제6로1번가길 3 1층 카페델타",
    "lat": 35.095327,
    "lng": 128.900925,
    "phone": "0507-1364-9210",
    "hours": "",
    "closedDays": [],
    "priceRange": "",
    "tags": [
      "카페",
      "디저트"
    ],
    "description": "카페 · 부산 강서구에 위치한 상하이버터떡 판매 매장",
    "region": "부산"
  },
  {
    "id": "shop-076",
    "name": "커피 카루다",
    "address": "부산 남구 수영로 26 대림시티프라자 상가 103호",
    "lat": 35.139105,
    "lng": 129.1036941,
    "phone": "0507-1393-5151",
    "hours": "",
    "closedDays": [],
    "priceRange": "",
    "tags": [
      "카페",
      "디저트"
    ],
    "description": "카페 · 부산 남구에 위치한 상하이버터떡 판매 매장",
    "region": "부산"
  },
  {
    "name": "파밀리아제과점",
    "address": "부산광역시 사상구 대동로 101",
    "phone": "",
    "hours": "",
    "closedDays": [],
    "priceRange": "",
    "tags": [
      "제과점"
    ],
    "description": "제과점 · 부산 사상구에 위치한 상하이버터떡 판매 제과점",
    "region": "부산",
    "id": "shop-077",
    "lat": 35.1480815,
    "lng": 128.9852541
  },
  {
    "id": "shop-078",
    "name": "데인티 용산점",
    "address": "대구 달서구 장산2길 26 1층 데인티",
    "lat": 35.8557244,
    "lng": 128.5254808,
    "phone": "0507-1348-2792",
    "hours": "",
    "closedDays": [],
    "priceRange": "",
    "tags": [
      "카페",
      "디저트"
    ],
    "description": "카페 · 대구 달서구에 위치한 상하이버터떡 판매 매장",
    "region": "대구"
  },
  {
    "id": "shop-079",
    "name": "딥블랑",
    "address": "대구 수성구 지범로39길 13",
    "lat": 35.8206243,
    "lng": 128.6421703,
    "phone": "0507-1335-0688",
    "hours": "",
    "closedDays": [],
    "priceRange": "",
    "tags": [
      "베이커리"
    ],
    "description": "베이커리 · 대구 수성구에 위치한 상하이버터떡 판매 매장",
    "region": "대구"
  },
  {
    "id": "shop-080",
    "name": "또도",
    "address": "대구 동구 신암북로11길 64",
    "lat": 35.8769774,
    "lng": 128.6309171,
    "phone": "0507-1405-1197",
    "hours": "",
    "closedDays": [],
    "priceRange": "",
    "tags": [
      "카페",
      "디저트"
    ],
    "description": "카페 · 대구 동구에 위치한 상하이버터떡 판매 매장",
    "region": "대구"
  },
  {
    "id": "shop-081",
    "name": "라이프 앤 커피",
    "address": "대구 중구 명륜로23길 105",
    "lat": 35.8748962,
    "lng": 128.5976433,
    "phone": "0507-1368-4752",
    "hours": "",
    "closedDays": [],
    "priceRange": "",
    "tags": [
      "카페",
      "디저트"
    ],
    "description": "카페 · 대구 중구에 위치한 상하이버터떡 판매 매장",
    "region": "대구"
  },
  {
    "id": "shop-082",
    "name": "레오나렌 주문제작케이크 & 레터링케이크",
    "address": "대구 달서구 야외음악당로7길 70 1층 레오나렌",
    "lat": 35.8401045,
    "lng": 128.5489565,
    "phone": "0507-1324-4605",
    "hours": "",
    "closedDays": [],
    "priceRange": "",
    "tags": [
      "케이크전문"
    ],
    "description": "케이크전문 · 대구 달서구에 위치한 상하이버터떡 판매 매장",
    "region": "대구"
  },
  {
    "id": "shop-083",
    "name": "르샤흠",
    "address": "대구 북구 칠곡중앙대로69길 9-13 르샤흠 101호",
    "lat": 35.926407,
    "lng": 128.545772,
    "phone": "0507-1303-6913",
    "hours": "",
    "closedDays": [],
    "priceRange": "",
    "tags": [
      "케이크전문"
    ],
    "description": "케이크전문 · 대구 북구에 위치한 상하이버터떡 판매 매장",
    "region": "대구"
  },
  {
    "id": "shop-084",
    "name": "미구제과 동구점",
    "address": "대구광역시 동구 동부로 207",
    "lat": 35.8542606,
    "lng": 128.5315267,
    "phone": "050-71366-6231",
    "hours": "",
    "closedDays": [],
    "priceRange": "",
    "tags": [
      "제과",
      "베이커리"
    ],
    "description": "제과점 · 대구 동구에 위치한 상하이버터떡 판매 제과점",
    "region": "대구"
  },
  {
    "id": "shop-085",
    "name": "미구제과 범어점",
    "address": "대구광역시 수성구 범어로24길 20",
    "lat": 35.8542606,
    "lng": 128.5315267,
    "phone": "050-71366-6231",
    "hours": "",
    "closedDays": [],
    "priceRange": "",
    "tags": [
      "제과",
      "베이커리",
      "카페"
    ],
    "description": "★ 4.7 (6개 리뷰) · 카페 · 대구 수성구 범어동에서 상하이버터떡을 판매하는 제과점",
    "region": "대구"
  },
  {
    "id": "shop-086",
    "name": "미구제과 본점",
    "address": "대구광역시 달서구 와룡로49길 101",
    "lat": 35.8542606,
    "lng": 128.5315267,
    "phone": "050-71366-6231",
    "hours": "",
    "closedDays": [],
    "priceRange": "",
    "tags": [
      "제과",
      "베이커리"
    ],
    "description": "제과점 · 대구 달서구에 위치한 미구제과 본점, 상하이버터떡 판매",
    "region": "대구"
  },
  {
    "id": "shop-087",
    "name": "미구제과 봉산점",
    "address": "대구광역시 중구 봉산문화길 43",
    "lat": 35.8542606,
    "lng": 128.5315267,
    "phone": "050-71366-6231",
    "hours": "",
    "closedDays": [],
    "priceRange": "",
    "tags": [
      "제과",
      "베이커리",
      "카페"
    ],
    "description": "★ 5.0 (20개 리뷰) · 카페 · 대구 중구 봉산동의 인기 상하이버터떡 제과점",
    "region": "대구"
  },
  {
    "id": "shop-088",
    "name": "미구제과 중앙점",
    "address": "대구광역시 중구 중앙대로 354-34",
    "lat": 35.8542606,
    "lng": 128.5315267,
    "phone": "050-71366-6231",
    "hours": "",
    "closedDays": [],
    "priceRange": "",
    "tags": [
      "제과",
      "베이커리"
    ],
    "description": "제과점 · 대구 중구 중앙로에 위치한 상하이버터떡 판매 제과점",
    "region": "대구"
  },
  {
    "id": "shop-089",
    "name": "바닐라크럼브",
    "address": "대구 중구 봉산문화길 43 1층",
    "lat": 35.8624507,
    "lng": 128.5975103,
    "phone": "0507-1419-4426",
    "hours": "",
    "closedDays": [],
    "priceRange": "",
    "tags": [
      "카페",
      "디저트"
    ],
    "description": "카페 · 대구 중구에 위치한 상하이버터떡 판매 매장",
    "region": "대구"
  },
  {
    "id": "shop-090",
    "name": "브마롱베이커리",
    "address": "대구 중구 명륜로23길 46 1층 브마롱베이커리",
    "lat": 35.8620414,
    "lng": 128.5957144,
    "phone": "0507-1477-5101",
    "hours": "",
    "closedDays": [],
    "priceRange": "",
    "tags": [
      "카페",
      "디저트"
    ],
    "description": "카페 · 대구 중구에 위치한 상하이버터떡 판매 매장",
    "region": "대구"
  },
  {
    "id": "shop-091",
    "name": "엘오이",
    "address": "대구 동구 안심뉴타운1로 19 1층 엘오이",
    "lat": 35.8694485,
    "lng": 128.6124265,
    "phone": "0507-1440-0752",
    "hours": "",
    "closedDays": [],
    "priceRange": "",
    "tags": [
      "카페"
    ],
    "description": "카페 · 대구 동구에 위치한 상하이버터떡 판매 매장",
    "region": "대구"
  },
  {
    "id": "shop-092",
    "name": "카페탬퍼",
    "address": "대구 동구 동부로 207 1층",
    "lat": 35.8765436,
    "lng": 128.6296243,
    "phone": "0507-1356-8397",
    "hours": "",
    "closedDays": [],
    "priceRange": "",
    "tags": [
      "카페"
    ],
    "description": "카페 · 대구 동구에 위치한 상하이버터떡 판매 매장",
    "region": "대구"
  },
  {
    "id": "shop-093",
    "name": "커피르플랑",
    "address": "대구 동구 동호로2길 37-22 1층 커피르플랑",
    "lat": 35.8658365,
    "lng": 128.7246909,
    "phone": "053-965-5251",
    "hours": "",
    "closedDays": [],
    "priceRange": "",
    "tags": [
      "카페",
      "디저트"
    ],
    "description": "카페 · 대구 동구에 위치한 상하이버터떡 판매 매장",
    "region": "대구"
  },
  {
    "id": "shop-094",
    "name": "쿠븐",
    "address": "대구 중구 달구벌대로443길 16 1층 초록색어닝",
    "lat": 35.8635677,
    "lng": 128.6053556,
    "phone": "",
    "hours": "",
    "closedDays": [],
    "priceRange": "",
    "tags": [
      "카페",
      "디저트"
    ],
    "description": "카페 · 대구 중구에 위치한 상하이버터떡 판매 매장",
    "region": "대구"
  },
  {
    "id": "shop-095",
    "name": "테라스57",
    "address": "대구 중구 명륜로 57 1층",
    "lat": 35.8620194,
    "lng": 128.5910172,
    "phone": "0507-1387-6204",
    "hours": "",
    "closedDays": [],
    "priceRange": "",
    "tags": [
      "카페",
      "디저트"
    ],
    "description": "카페 · 대구 중구에 위치한 상하이버터떡 판매 매장",
    "region": "대구"
  },
  {
    "id": "shop-096",
    "name": "티웨스트 동성로점",
    "address": "대구 중구 국채보상로 635 1층",
    "lat": 35.8702287,
    "lng": 128.6000243,
    "phone": "070-8098-6656",
    "hours": "",
    "closedDays": [],
    "priceRange": "",
    "tags": [
      "카페"
    ],
    "description": "카페 · 대구 중구에 위치한 상하이버터떡 판매 매장",
    "region": "대구"
  },
  {
    "id": "shop-097",
    "name": "휘낭시에디오 대구경북대본점",
    "address": "대구 북구 동북로50길 9",
    "lat": 35.8944148,
    "lng": 128.6174323,
    "phone": "0507-1371-3954",
    "hours": "",
    "closedDays": [],
    "priceRange": "",
    "tags": [
      "카페",
      "디저트"
    ],
    "description": "카페 · 대구 북구에 위치한 상하이버터떡 판매 매장",
    "region": "대구"
  },
  {
    "id": "shop-098",
    "name": "빵순상점",
    "address": "대전 서구 가장로 66 2층",
    "lat": 36.2955296,
    "lng": 127.3399617,
    "phone": "0507-1393-0434",
    "hours": "",
    "closedDays": [],
    "priceRange": "",
    "tags": [
      "카페",
      "디저트"
    ],
    "description": "카페 · 대전 서구에 위치한 상하이버터떡 판매 매장",
    "region": "대전"
  },
  {
    "id": "shop-099",
    "name": "우디woodee",
    "address": "대전 서구 도안중로311번길 60 1층",
    "lat": 36.3154642,
    "lng": 127.3502135,
    "phone": "0507-1330-1396",
    "hours": "",
    "closedDays": [],
    "priceRange": "",
    "tags": [
      "카페",
      "디저트"
    ],
    "description": "카페 · 대전 서구에 위치한 상하이버터떡 판매 매장",
    "region": "대전"
  },
  {
    "id": "shop-100",
    "name": "도토리베이커리",
    "address": "광주 북구 용주로30번길 47-3",
    "lat": 35.1808255,
    "lng": 126.9033786,
    "phone": "0507-1348-8401",
    "hours": "",
    "closedDays": [],
    "priceRange": "",
    "tags": [
      "베이커리"
    ],
    "description": "베이커리 · 광주 북구에 위치한 상하이버터떡 판매 매장",
    "region": "광주"
  },
  {
    "id": "shop-101",
    "name": "무등커피",
    "address": "광주 북구 버들로19번길 40",
    "lat": 35.1586776,
    "lng": 126.9071364,
    "phone": "0507-1375-1510",
    "hours": "",
    "closedDays": [],
    "priceRange": "",
    "tags": [
      "카페",
      "디저트"
    ],
    "description": "카페 · 광주 북구에 위치한 상하이버터떡 판매 매장",
    "region": "광주"
  },
  {
    "id": "shop-102",
    "name": "카페로운",
    "address": "광주 북구 저불로69번길 10 1층",
    "lat": 35.1807261,
    "lng": 126.894384,
    "phone": "",
    "hours": "",
    "closedDays": [],
    "priceRange": "",
    "tags": [
      "카페",
      "디저트"
    ],
    "description": "카페 · 광주 북구에 위치한 상하이버터떡 판매 매장",
    "region": "광주"
  },
  {
    "name": "도우트리베이커리카페",
    "address": "울산광역시 울주군 서생면 해맞이로",
    "phone": "",
    "hours": "",
    "closedDays": [],
    "priceRange": "",
    "tags": [
      "베이커리카페"
    ],
    "description": "베이커리카페 · 울산 울주군 서생면 해안가에 위치한 상하이버터떡 판매 베이커리 카페",
    "region": "울산",
    "id": "shop-103",
    "lat": 35.3859289,
    "lng": 129.339892
  },
  {
    "id": "shop-104",
    "name": "빠삐용베이커리 성남동본점",
    "address": "울산 중구 중앙길 91",
    "lat": 35.5555063,
    "lng": 129.3184526,
    "phone": "052-248-0250",
    "hours": "",
    "closedDays": [],
    "priceRange": "",
    "tags": [
      "베이커리"
    ],
    "description": "베이커리 · 울산 중구에 위치한 상하이버터떡 판매 매장",
    "region": "울산"
  },
  {
    "id": "shop-105",
    "name": "설기다니",
    "address": "울산 중구 남외2길 25 1층 106호",
    "lat": 35.5680145,
    "lng": 129.3505267,
    "phone": "0507-1393-9330",
    "hours": "",
    "closedDays": [],
    "priceRange": "",
    "tags": [
      "떡류제조"
    ],
    "description": "떡류제조 · 울산 중구에 위치한 상하이버터떡 판매 매장",
    "region": "울산"
  },
  {
    "id": "shop-106",
    "name": "아마이 베이크샵",
    "address": "울산 울주군 청량읍 상남1길 120 102호",
    "lat": 35.482749,
    "lng": 129.3070622,
    "phone": "0507-1342-3852",
    "hours": "",
    "closedDays": [],
    "priceRange": "",
    "tags": [
      "카페",
      "디저트"
    ],
    "description": "카페 · 울산 울주군에 위치한 상하이버터떡 판매 매장",
    "region": "울산"
  },
  {
    "id": "shop-107",
    "name": "커피학개론",
    "address": "울산 울주군 온산읍 신경길 55 1층",
    "lat": 35.430333,
    "lng": 129.3051576,
    "phone": "0507-1330-4018",
    "hours": "",
    "closedDays": [],
    "priceRange": "",
    "tags": [
      "카페"
    ],
    "description": "카페 · 울산 울주군에 위치한 상하이버터떡 판매 매장",
    "region": "울산"
  },
  {
    "id": "shop-108",
    "name": "수자매롱",
    "address": "세종 대평3길 18 해피라움블루 4층 406호",
    "lat": 36.4735246,
    "lng": 127.2749105,
    "phone": "0507-1401-1853",
    "hours": "",
    "closedDays": [],
    "priceRange": "",
    "tags": [
      "카페",
      "디저트"
    ],
    "description": "카페 · 세종에 위치한 상하이버터떡 판매 매장",
    "region": "세종"
  },
  {
    "id": "shop-109",
    "name": "사계곳간",
    "address": "강원 춘천시 새롬공원길5번길 25-1 1층 카페",
    "lat": 37.8545064,
    "lng": 127.7467169,
    "phone": "033-255-3601",
    "hours": "",
    "closedDays": [],
    "priceRange": "",
    "tags": [
      "베이커리"
    ],
    "description": "베이커리 · 강원 춘천시에 위치한 상하이버터떡 판매 매장",
    "region": "강원"
  },
  {
    "id": "shop-110",
    "name": "올블루파스타",
    "address": "강원 춘천시 후만로 91 1층",
    "lat": 37.8764759,
    "lng": 127.7545814,
    "phone": "0507-1370-0990",
    "hours": "",
    "closedDays": [],
    "priceRange": "",
    "tags": [
      "스파게티",
      "파스타전문"
    ],
    "description": "스파게티 · 강원 춘천시에 위치한 상하이버터떡 판매 매장",
    "region": "강원"
  },
  {
    "id": "shop-111",
    "name": "귤솜제과",
    "address": "충북 충주시 남산9길 4 . 1층",
    "lat": 36.9657749,
    "lng": 127.9429612,
    "phone": "0507-1385-1376",
    "hours": "",
    "closedDays": [],
    "priceRange": "",
    "tags": [
      "카페",
      "디저트"
    ],
    "description": "카페 · 충북 충주시에 위치한 상하이버터떡 판매 매장",
    "region": "충북"
  },
  {
    "id": "shop-112",
    "name": "소곰간",
    "address": "충북 청주시 청원구 율량로190번길 81 1층 101, 102, 103호",
    "lat": 36.6654541,
    "lng": 127.494321,
    "phone": "",
    "hours": "",
    "closedDays": [],
    "priceRange": "",
    "tags": [
      "베이커리"
    ],
    "description": "베이커리 · 충북 청주시에 위치한 상하이버터떡 판매 매장",
    "region": "충북"
  },
  {
    "id": "shop-113",
    "name": "응블리제과점",
    "address": "충남 천안시 서북구 밤개울1길 11 1층",
    "lat": 36.8051139,
    "lng": 127.1318793,
    "phone": "0507-1390-2403",
    "hours": "",
    "closedDays": [],
    "priceRange": "",
    "tags": [
      "베이커리"
    ],
    "description": "베이커리 · 충남 천안시에 위치한 상하이버터떡 판매 매장",
    "region": "충남"
  },
  {
    "name": "지우제과",
    "address": "충남 아산시 배방읍 광장로",
    "phone": "07-1445-0803",
    "hours": "",
    "closedDays": [],
    "priceRange": "",
    "tags": [
      "제과점"
    ],
    "description": "제과점 · 충남 아산 배방읍에 위치한 상하이버터떡 판매 제과점",
    "region": "충남",
    "id": "shop-114",
    "lat": 36.7909821,
    "lng": 127.094352
  },
  {
    "id": "shop-115",
    "name": "프럼브릿지 천안신부점",
    "address": "충남 천안시 동남구 먹거리3길 16",
    "lat": 36.8174585,
    "lng": 127.1549737,
    "phone": "0507-1366-2914",
    "hours": "",
    "closedDays": [],
    "priceRange": "",
    "tags": [
      "카페",
      "디저트"
    ],
    "description": "카페 · 충남 천안시에 위치한 상하이버터떡 판매 매장",
    "region": "충남"
  },
  {
    "id": "shop-116",
    "name": "검은깃 사운드",
    "address": "전북 전주시 완산구 충경로 52-5",
    "lat": 35.8178444,
    "lng": 127.1451236,
    "phone": "0507-1435-9058",
    "hours": "",
    "closedDays": [],
    "priceRange": "",
    "tags": [
      "카페",
      "디저트"
    ],
    "description": "카페 · 전북 전주시에 위치한 상하이버터떡 판매 매장",
    "region": "전북"
  },
  {
    "id": "shop-117",
    "name": "모어커피랩",
    "address": "전북특별자치도 전주시 덕진구 견훤로 424 1층",
    "lat": 35.8488398,
    "lng": 127.1523132,
    "phone": "050-71317-9499",
    "hours": "",
    "closedDays": [],
    "priceRange": "",
    "tags": [
      "카페"
    ],
    "description": "카페 · 전주 덕진구에서 상하이버터떡과 커피를 함께 즐길 수 있는 카페",
    "region": "전북"
  },
  {
    "id": "shop-118",
    "name": "쏠티썰티",
    "address": "전북 군산시 신영2길 7-2 SalTy ThirTy",
    "lat": 35.9838711,
    "lng": 126.7109976,
    "phone": "070-4135-3030",
    "hours": "",
    "closedDays": [],
    "priceRange": "",
    "tags": [
      "카페",
      "디저트"
    ],
    "description": "카페 · 전북 군산시에 위치한 상하이버터떡 판매 매장",
    "region": "전북"
  },
  {
    "id": "shop-119",
    "name": "인셔틀",
    "address": "전북 전주시 완산구 바우배기2길 17-5",
    "lat": 35.8172992,
    "lng": 127.1035915,
    "phone": "0507-0284-4328",
    "hours": "",
    "closedDays": [],
    "priceRange": "",
    "tags": [
      "카페",
      "디저트"
    ],
    "description": "카페 · 전북 전주시에 위치한 상하이버터떡 판매 매장",
    "region": "전북"
  },
  {
    "id": "shop-120",
    "name": "몽디",
    "address": "전남 담양군 담양읍 깊은실길 84-78 201호",
    "lat": 35.3214413,
    "lng": 127.0046831,
    "phone": "0507-1311-8478",
    "hours": "",
    "closedDays": [],
    "priceRange": "",
    "tags": [
      "카페",
      "디저트"
    ],
    "description": "카페 · 전남 담양군에 위치한 상하이버터떡 판매 매장",
    "region": "전남"
  },
  {
    "id": "shop-121",
    "name": "선제과 순천금당본점",
    "address": "전남 순천시 왕궁1길 10 1층",
    "lat": 34.9536644,
    "lng": 127.5318684,
    "phone": "0507-1491-7174",
    "hours": "",
    "closedDays": [],
    "priceRange": "",
    "tags": [
      "카페",
      "디저트"
    ],
    "description": "카페 · 전남 순천시에 위치한 상하이버터떡 판매 매장",
    "region": "전남"
  },
  {
    "id": "shop-122",
    "name": "스트로베리팩토리",
    "address": "전남 목포시 교육로 38",
    "lat": 34.8008381,
    "lng": 126.421734,
    "phone": "0507-1445-9018",
    "hours": "",
    "closedDays": [],
    "priceRange": "",
    "tags": [
      "카페",
      "디저트"
    ],
    "description": "카페 · 전남 목포시에 위치한 상하이버터떡 판매 매장",
    "region": "전남"
  },
  {
    "id": "shop-123",
    "name": "아리에뜰",
    "address": "전남 담양군 용면 추월산로 997",
    "lat": 35.4031307,
    "lng": 126.9981083,
    "phone": "061-383-2064",
    "hours": "",
    "closedDays": [],
    "priceRange": "",
    "tags": [
      "카페"
    ],
    "description": "카페 · 전남 담양군에 위치한 상하이버터떡 판매 매장",
    "region": "전남"
  },
  {
    "id": "shop-124",
    "name": "아빌리 담양소아르떼점",
    "address": "전남 담양군 담양읍 깊은실길 84-54 110호",
    "lat": 35.312983,
    "lng": 127.0098534,
    "phone": "0507-1428-6177",
    "hours": "",
    "closedDays": [],
    "priceRange": "",
    "tags": [
      "카페",
      "디저트"
    ],
    "description": "카페 · 전남 담양군에 위치한 상하이버터떡 판매 매장",
    "region": "전남"
  },
  {
    "id": "shop-125",
    "name": "해브어구떼",
    "address": "전남 순천시 호남길 134 1층 카페 해브어구떼",
    "lat": 34.9561824,
    "lng": 127.4814171,
    "phone": "",
    "hours": "",
    "closedDays": [],
    "priceRange": "",
    "tags": [
      "카페",
      "디저트"
    ],
    "description": "카페 · 전남 순천시에 위치한 상하이버터떡 판매 매장",
    "region": "전남"
  },
  {
    "id": "shop-126",
    "name": "카페그곳에",
    "address": "경북 구미시 형곡서로1길 23-11 1층 카페그곳에",
    "lat": 36.1061343,
    "lng": 128.331732,
    "phone": "0507-1310-6674",
    "hours": "",
    "closedDays": [],
    "priceRange": "",
    "tags": [
      "카페",
      "디저트"
    ],
    "description": "카페 · 경북 구미시에 위치한 상하이버터떡 판매 매장",
    "region": "경북"
  },
  {
    "id": "shop-127",
    "name": "카페멜랑그랑",
    "address": "경북 구미시 인동20길 43-4 메르헨 1 층 101 호",
    "lat": 36.0950875,
    "lng": 128.4236406,
    "phone": "0507-1432-1006",
    "hours": "",
    "closedDays": [],
    "priceRange": "",
    "tags": [
      "카페",
      "디저트"
    ],
    "description": "카페 · 경북 구미시에 위치한 상하이버터떡 판매 매장",
    "region": "경북"
  },
  {
    "id": "shop-128",
    "name": "테트라블럭",
    "address": "경북 포항시 남구 동해면 호미로2790번길 18 1층,테트라블럭",
    "lat": 36.0138178,
    "lng": 129.4772326,
    "phone": "0507-1364-0473",
    "hours": "",
    "closedDays": [],
    "priceRange": "",
    "tags": [
      "브런치카페"
    ],
    "description": "브런치카페 · 경북 포항시에 위치한 상하이버터떡 판매 매장",
    "region": "경북"
  },
  {
    "id": "shop-129",
    "name": "42도시앤귀빈케이크",
    "address": "경남 창원시 마산합포구 현동1길 8 42도시앤귀빈케이크",
    "lat": 35.2470067,
    "lng": 128.6542496,
    "phone": "",
    "hours": "",
    "closedDays": [],
    "priceRange": "",
    "tags": [
      "케이크전문"
    ],
    "description": "케이크전문 · 경남 창원시에 위치한 상하이버터떡 판매 매장",
    "region": "경남"
  },
  {
    "id": "shop-130",
    "name": "김앤주과자점 진영점",
    "address": "경남 김해시 진영읍 장등로 3 경남빌딩 101호",
    "lat": 35.3126078,
    "lng": 128.7343238,
    "phone": "0507-1369-5415",
    "hours": "",
    "closedDays": [],
    "priceRange": "",
    "tags": [
      "베이커리"
    ],
    "description": "베이커리 · 경남 김해시에 위치한 상하이버터떡 판매 매장",
    "region": "경남"
  },
  {
    "id": "shop-131",
    "name": "닛썸커피",
    "address": "경남 창원시 진해구 중원로 41-2 닛썸커피 1층",
    "lat": 35.1503,
    "lng": 128.6592321,
    "phone": "0507-1462-1652",
    "hours": "",
    "closedDays": [],
    "priceRange": "",
    "tags": [
      "카페",
      "디저트"
    ],
    "description": "카페 · 경남 창원시에 위치한 상하이버터떡 판매 매장",
    "region": "경남"
  },
  {
    "id": "shop-132",
    "name": "디얼브루",
    "address": "경남 창원시 진해구 자은로88번길 55 1층, 2층",
    "lat": 35.148878,
    "lng": 128.7107953,
    "phone": "0507-1312-0723",
    "hours": "",
    "closedDays": [],
    "priceRange": "",
    "tags": [
      "베이커리"
    ],
    "description": "베이커리 · 경남 창원시에 위치한 상하이버터떡 판매 매장",
    "region": "경남"
  },
  {
    "id": "shop-133",
    "name": "로드비",
    "address": "경남 창원시 의창구 사화로18번길 1",
    "lat": 35.1994578,
    "lng": 128.5653129,
    "phone": "0507-1399-0223",
    "hours": "",
    "closedDays": [],
    "priceRange": "",
    "tags": [
      "카페",
      "디저트"
    ],
    "description": "카페 · 경남 창원시에 위치한 상하이버터떡 판매 매장",
    "region": "경남"
  },
  {
    "id": "shop-134",
    "name": "모도베이커리",
    "address": "경남 창원시 마산합포구 합포로 97-1 1층",
    "lat": 35.2046979,
    "lng": 128.5773411,
    "phone": "0507-2085-0360",
    "hours": "",
    "closedDays": [],
    "priceRange": "",
    "tags": [
      "브런치"
    ],
    "description": "브런치 · 경남 창원시에 위치한 상하이버터떡 판매 매장",
    "region": "경남"
  },
  {
    "id": "shop-135",
    "name": "백애구움과자점",
    "address": "경남 창원시 마산합포구 노산서18길 46 1층 101호",
    "lat": 35.2150593,
    "lng": 128.5661506,
    "phone": "0507-1300-0413",
    "hours": "",
    "closedDays": [],
    "priceRange": "",
    "tags": [
      "카페",
      "디저트"
    ],
    "description": "카페 · 경남 창원시에 위치한 상하이버터떡 판매 매장",
    "region": "경남"
  },
  {
    "id": "shop-136",
    "name": "베다니베이커리 장유점",
    "address": "경남 김해시 율하숲길 24 탑 프라자 107호",
    "lat": 35.1708144,
    "lng": 128.8235305,
    "phone": "0507-1440-5415",
    "hours": "",
    "closedDays": [],
    "priceRange": "",
    "tags": [
      "베이커리"
    ],
    "description": "베이커리 · 경남 김해시에 위치한 상하이버터떡 판매 매장",
    "region": "경남"
  },
  {
    "id": "shop-137",
    "name": "원스트림커피",
    "address": "경남 창원시 진해구 냉천남로 3-28 1층 104호",
    "lat": 35.2158875,
    "lng": 128.7092401,
    "phone": "0507-1399-8024",
    "hours": "",
    "closedDays": [],
    "priceRange": "",
    "tags": [
      "카페",
      "디저트"
    ],
    "description": "카페 · 경남 창원시에 위치한 상하이버터떡 판매 매장",
    "region": "경남"
  },
  {
    "id": "shop-138",
    "name": "그초록",
    "address": "제주 제주시 구좌읍 행원로7길 23-16 1층",
    "lat": 33.5564207,
    "lng": 126.8063909,
    "phone": "0507-1323-4244",
    "hours": "",
    "closedDays": [],
    "priceRange": "",
    "tags": [
      "카페",
      "디저트"
    ],
    "description": "카페 · 제주 제주시에 위치한 상하이버터떡 판매 매장",
    "region": "제주"
  },
  {
    "id": "shop-139",
    "name": "더모먼트 김녕",
    "address": "제주 제주시 구좌읍 김녕로22길 3 1, 2층",
    "lat": 33.5536412,
    "lng": 126.7587967,
    "phone": "070-8888-8316",
    "hours": "",
    "closedDays": [],
    "priceRange": "",
    "tags": [
      "카페",
      "디저트"
    ],
    "description": "카페 · 제주 제주시에 위치한 상하이버터떡 판매 매장",
    "region": "제주"
  },
  {
    "id": "shop-140",
    "name": "브리나케오슈",
    "address": "제주특별자치도 제주시 애월읍 고내3길 21-2",
    "lat": 33.4645946,
    "lng": 126.3362474,
    "phone": "050-71441-9086",
    "hours": "",
    "closedDays": [],
    "priceRange": "",
    "tags": [
      "제과",
      "베이커리"
    ],
    "description": "베이커리 · 제주 애월읍에 위치한 상하이버터떡 판매 베이커리",
    "region": "제주"
  },
  {
    "name": "진진제과",
    "address": "제주특별자치도 제주시 신설로4길 4",
    "phone": "064-723-7655",
    "hours": "",
    "closedDays": [],
    "priceRange": "",
    "tags": [
      "베이커리"
    ],
    "description": "베이커리 · 제주시에 위치한 상하이버터떡 판매 제과점",
    "region": "제주",
    "id": "shop-141",
    "lat": 33.4931122,
    "lng": 126.5438801
  },
  {
    "id": "shop-142",
    "name": "찰리공장 제주동문시장본점",
    "address": "제주 제주시 중앙로13길 21",
    "lat": 33.5115882,
    "lng": 126.5267614,
    "phone": "0507-1318-3507",
    "hours": "",
    "closedDays": [],
    "priceRange": "",
    "tags": [
      "카페",
      "디저트"
    ],
    "description": "카페 · 제주 제주시에 위치한 상하이버터떡 판매 매장",
    "region": "제주"
  }
]